{"type":"FeatureCollection","features":[{"type":"Feature","properties":{"dataset_id":240,"resource_id":67595,"dataset_title":"SNCF Transilien","stop_id":"IDFM:monomodalStopPlace:46990","data_import_id":495624,"resource_title":"https://eu.ftp.opendatasoft.com/sncf/gtfs/transilien-gtfs.zip","stop_name":"Saint-Cyr","location_type":0},"geometry":{"type":"Point","coordinates":[2.072712440765476,48.79877460471833]}},{"type":"Feature","properties":{"dataset_id":240,"resource_id":67595,"dataset_title":"SNCF Transilien","stop_id":"IDFM:471247","data_import_id":495624,"resource_title":"https://eu.ftp.opendatasoft.com/sncf/gtfs/transilien-gtfs.zip","stop_name":"Saint-Cyr","location_type":0},"geometry":{"type":"Point","coordinates":[2.071778443348921,48.79885280051706]}},{"type":"Feature","properties":{"dataset_id":240,"resource_id":67595,"dataset_title":"SNCF Transilien","stop_id":"IDFM:471036","data_import_id":495624,"resource_title":"https://eu.ftp.opendatasoft.com/sncf/gtfs/transilien-gtfs.zip","stop_name":"Saint-Cyr","location_type":0},"geometry":{"type":"Point","coordinates":[2.073755337690405,48.79869724562592]}},{"type":"Feature","properties":{"dataset_id":240,"resource_id":67595,"dataset_title":"SNCF Transilien","stop_id":"IDFM:472908","data_import_id":495624,"resource_title":"https://eu.ftp.opendatasoft.com/sncf/gtfs/transilien-gtfs.zip","stop_name":"Saint-Cyr","location_type":0},"geometry":{"type":"Point","coordinates":[2.07372922995978,48.798634083249894]}},{"type":"Feature","properties":{"dataset_id":240,"resource_id":67595,"dataset_title":"SNCF Transilien","stop_id":"IDFM:471899","data_import_id":495624,"resource_title":"https://eu.ftp.opendatasoft.com/sncf/gtfs/transilien-gtfs.zip","stop_name":"Saint-Cyr","location_type":0},"geometry":{"type":"Point","coordinates":[2.073754539250172,48.798742210897366]}},{"type":"Feature","properties":{"dataset_id":240,"resource_id":67595,"dataset_title":"SNCF Transilien","stop_id":"IDFM:472732","data_import_id":495624,"resource_title":"https://eu.ftp.opendatasoft.com/sncf/gtfs/transilien-gtfs.zip","stop_name":"Saint-Cyr","location_type":0},"geometry":{"type":"Point","coordinates":[2.0716855542506223,48.7987171646726]}},{"type":"Feature","properties":{"dataset_id":240,"resource_id":67595,"dataset_title":"SNCF Transilien","stop_id":"IDFM:470890","data_import_id":495624,"resource_title":"https://eu.ftp.opendatasoft.com/sncf/gtfs/transilien-gtfs.zip","stop_name":"Saint-Cyr","location_type":0},"geometry":{"type":"Point","coordinates":[2.0716713012718486,48.79875303114655]}},{"type":"Feature","properties":{"dataset_id":240,"resource_id":67595,"dataset_title":"SNCF Transilien","stop_id":"IDFM:73731","data_import_id":495624,"resource_title":"https://eu.ftp.opendatasoft.com/sncf/gtfs/transilien-gtfs.zip","stop_name":"Saint-Cyr","location_type":1},"geometry":{"type":"Point","coordinates":[2.0733459489377735,48.799517049755266]}},{"type":"Feature","properties":{"dataset_id":240,"resource_id":67595,"dataset_title":"SNCF Transilien","stop_id":"IDFM:490704","data_import_id":495624,"resource_title":"https://eu.ftp.opendatasoft.com/sncf/gtfs/transilien-gtfs.zip","stop_name":"République - La Poste / Ecole Militaire","location_type":1},"geometry":{"type":"Point","coordinates":[2.069527664491933,48.7994783912967]}},{"type":"Feature","properties":{"dataset_id":668,"resource_id":80921,"dataset_title":"Réseaux urbains et interurbains d'Île-de-France Mobilités (IDFM)","stop_id":"IDFM:monomodalStopPlace:46990","data_import_id":495663,"resource_title":"Horaires au format GTFS","stop_name":"Saint-Cyr","location_type":0},"geometry":{"type":"Point","coordinates":[2.072712440765476,48.79877460471833]}},{"type":"Feature","properties":{"dataset_id":668,"resource_id":80921,"dataset_title":"Réseaux urbains et interurbains d'Île-de-France Mobilités (IDFM)","stop_id":"IDFM:494235","data_import_id":495663,"resource_title":"Horaires au format GTFS","stop_name":"Quartier Gally","location_type":0},"geometry":{"type":"Point","coordinates":[2.0804391598220064,48.801069378889004]}},{"type":"Feature","properties":{"dataset_id":668,"resource_id":80921,"dataset_title":"Réseaux urbains et interurbains d'Île-de-France Mobilités (IDFM)","stop_id":"IDFM:494486","data_import_id":495663,"resource_title":"Horaires au format GTFS","stop_name":"Saint-Cyr - voie 2","location_type":0},"geometry":{"type":"Point","coordinates":[2.074730353991662,48.79899261499845]}},{"type":"Feature","properties":{"dataset_id":668,"resource_id":80921,"dataset_title":"Réseaux urbains et interurbains d'Île-de-France Mobilités (IDFM)","stop_id":"IDFM:483719","data_import_id":495663,"resource_title":"Horaires au format GTFS","stop_name":"Quartier Gally","location_type":0},"geometry":{"type":"Point","coordinates":[2.0789540268323266,48.80112989805245]}},{"type":"Feature","properties":{"dataset_id":668,"resource_id":80921,"dataset_title":"Réseaux urbains et interurbains d'Île-de-France Mobilités (IDFM)","stop_id":"IDFM:488484","data_import_id":495663,"resource_title":"Horaires au format GTFS","stop_name":"Gare de Saint-Cyr-l'École","location_type":0},"geometry":{"type":"Point","coordinates":[2.0715465451177533,48.79887798220019]}},{"type":"Feature","properties":{"dataset_id":668,"resource_id":80921,"dataset_title":"Réseaux urbains et interurbains d'Île-de-France Mobilités (IDFM)","stop_id":"IDFM:5847","data_import_id":495663,"resource_title":"Horaires au format GTFS","stop_name":"Lycée Mansart","location_type":0},"geometry":{"type":"Point","coordinates":[2.0634567336976617,48.80509287285473]}},{"type":"Feature","properties":{"dataset_id":668,"resource_id":80921,"dataset_title":"Réseaux urbains et interurbains d'Île-de-France Mobilités (IDFM)","stop_id":"IDFM:5845","data_import_id":495663,"resource_title":"Horaires au format GTFS","stop_name":"Aérodrome / Les Portes de Saint-Cyr","location_type":0},"geometry":{"type":"Point","coordinates":[2.0739136756260295,48.80511588159866]}},{"type":"Feature","properties":{"dataset_id":668,"resource_id":80921,"dataset_title":"Réseaux urbains et interurbains d'Île-de-France Mobilités (IDFM)","stop_id":"IDFM:461995","data_import_id":495663,"resource_title":"Horaires au format GTFS","stop_name":"Mairie - Hôtel de ville","location_type":0},"geometry":{"type":"Point","coordinates":[2.066517231724373,48.79994510629775]}},{"type":"Feature","properties":{"dataset_id":668,"resource_id":80921,"dataset_title":"Réseaux urbains et interurbains d'Île-de-France Mobilités (IDFM)","stop_id":"IDFM:479371","data_import_id":495663,"resource_title":"Horaires au format GTFS","stop_name":"Colonel Arnaud Beltrame","location_type":0},"geometry":{"type":"Point","coordinates":[2.0725507536065098,48.80671978016485]}},{"type":"Feature","properties":{"dataset_id":668,"resource_id":80921,"dataset_title":"Réseaux urbains et interurbains d'Île-de-France Mobilités (IDFM)","stop_id":"IDFM:480908","data_import_id":495663,"resource_title":"Horaires au format GTFS","stop_name":"Saint-Cyr","location_type":0},"geometry":{"type":"Point","coordinates":[2.0747164220775898,48.79901049572037]}},{"type":"Feature","properties":{"dataset_id":668,"resource_id":80921,"dataset_title":"Réseaux urbains et interurbains d'Île-de-France Mobilités (IDFM)","stop_id":"IDFM:481075","data_import_id":495663,"resource_title":"Horaires au format GTFS","stop_name":"Les Portes de Saint-Cyr","location_type":0},"geometry":{"type":"Point","coordinates":[2.0773050548633556,48.80660367020067]}},{"type":"Feature","properties":{"dataset_id":668,"resource_id":80921,"dataset_title":"Réseaux urbains et interurbains d'Île-de-France Mobilités (IDFM)","stop_id":"IDFM:25009","data_import_id":495663,"resource_title":"Horaires au format GTFS","stop_name":"Ecole Militaire / Saint-Cyr","location_type":0},"geometry":{"type":"Point","coordinates":[2.06942388252406,48.79957202337154]}},{"type":"Feature","properties":{"dataset_id":668,"resource_id":80921,"dataset_title":"Réseaux urbains et interurbains d'Île-de-France Mobilités (IDFM)","stop_id":"IDFM:32916","data_import_id":495663,"resource_title":"Horaires au format GTFS","stop_name":"Docteur Vaillant","location_type":0},"geometry":{"type":"Point","coordinates":[2.072236886152737,48.80293076730375]}},{"type":"Feature","properties":{"dataset_id":668,"resource_id":80921,"dataset_title":"Réseaux urbains et interurbains d'Île-de-France Mobilités (IDFM)","stop_id":"IDFM:20631","data_import_id":495663,"resource_title":"Horaires au format GTFS","stop_name":"Ecole Militaire","location_type":0},"geometry":{"type":"Point","coordinates":[2.069357742867933,48.79946357690586]}},{"type":"Feature","properties":{"dataset_id":668,"resource_id":80921,"dataset_title":"Réseaux urbains et interurbains d'Île-de-France Mobilités (IDFM)","stop_id":"IDFM:415336","data_import_id":495663,"resource_title":"Horaires au format GTFS","stop_name":"Jean-Baptiste Lully","location_type":0},"geometry":{"type":"Point","coordinates":[2.0674722991075685,48.80592475474306]}},{"type":"Feature","properties":{"dataset_id":668,"resource_id":80921,"dataset_title":"Réseaux urbains et interurbains d'Île-de-France Mobilités (IDFM)","stop_id":"IDFM:415333","data_import_id":495663,"resource_title":"Horaires au format GTFS","stop_name":"Jean-Baptiste Lully","location_type":0},"geometry":{"type":"Point","coordinates":[2.06759322334609,48.80601564045424]}},{"type":"Feature","properties":{"dataset_id":668,"resource_id":80921,"dataset_title":"Réseaux urbains et interurbains d'Île-de-France Mobilités (IDFM)","stop_id":"IDFM:415338","data_import_id":495663,"resource_title":"Horaires au format GTFS","stop_name":"République - La Poste","location_type":0},"geometry":{"type":"Point","coordinates":[2.067715926041175,48.798389454613634]}},{"type":"Feature","properties":{"dataset_id":668,"resource_id":80921,"dataset_title":"Réseaux urbains et interurbains d'Île-de-France Mobilités (IDFM)","stop_id":"IDFM:415342","data_import_id":495663,"resource_title":"Horaires au format GTFS","stop_name":"Parc Maurice Leluc","location_type":0},"geometry":{"type":"Point","coordinates":[2.063942506225405,48.794717260745585]}},{"type":"Feature","properties":{"dataset_id":668,"resource_id":80921,"dataset_title":"Réseaux urbains et interurbains d'Île-de-France Mobilités (IDFM)","stop_id":"IDFM:415343","data_import_id":495663,"resource_title":"Horaires au format GTFS","stop_name":"Parc Maurice Leluc","location_type":0},"geometry":{"type":"Point","coordinates":[2.0640144373950795,48.79450196002044]}},{"type":"Feature","properties":{"dataset_id":668,"resource_id":80921,"dataset_title":"Réseaux urbains et interurbains d'Île-de-France Mobilités (IDFM)","stop_id":"IDFM:415346","data_import_id":495663,"resource_title":"Horaires au format GTFS","stop_name":"Paul Vaillant Couturier","location_type":0},"geometry":{"type":"Point","coordinates":[2.0729908877221055,48.79727921402901]}},{"type":"Feature","properties":{"dataset_id":668,"resource_id":80921,"dataset_title":"Réseaux urbains et interurbains d'Île-de-France Mobilités (IDFM)","stop_id":"IDFM:415347","data_import_id":495663,"resource_title":"Horaires au format GTFS","stop_name":"Paul Vaillant Couturier","location_type":0},"geometry":{"type":"Point","coordinates":[2.0728686956421813,48.79726027759665]}},{"type":"Feature","properties":{"dataset_id":668,"resource_id":80921,"dataset_title":"Réseaux urbains et interurbains d'Île-de-France Mobilités (IDFM)","stop_id":"IDFM:415354","data_import_id":495663,"resource_title":"Horaires au format GTFS","stop_name":"Rue du Plateau","location_type":0},"geometry":{"type":"Point","coordinates":[2.06819081450882,48.7946695108479]}},{"type":"Feature","properties":{"dataset_id":668,"resource_id":80921,"dataset_title":"Réseaux urbains et interurbains d'Île-de-France Mobilités (IDFM)","stop_id":"IDFM:415355","data_import_id":495663,"resource_title":"Horaires au format GTFS","stop_name":"Rue du Plateau","location_type":0},"geometry":{"type":"Point","coordinates":[2.068280941924652,48.794753824828206]}},{"type":"Feature","properties":{"dataset_id":668,"resource_id":80921,"dataset_title":"Réseaux urbains et interurbains d'Île-de-France Mobilités (IDFM)","stop_id":"IDFM:415351","data_import_id":495663,"resource_title":"Horaires au format GTFS","stop_name":"Ecole Bizet","location_type":0},"geometry":{"type":"Point","coordinates":[2.071369552205195,48.79428950806028]}},{"type":"Feature","properties":{"dataset_id":668,"resource_id":80921,"dataset_title":"Réseaux urbains et interurbains d'Île-de-France Mobilités (IDFM)","stop_id":"IDFM:20628","data_import_id":495663,"resource_title":"Horaires au format GTFS","stop_name":"République - La Poste","location_type":0},"geometry":{"type":"Point","coordinates":[2.067875421584617,48.7986065618531]}},{"type":"Feature","properties":{"dataset_id":668,"resource_id":80921,"dataset_title":"Réseaux urbains et interurbains d'Île-de-France Mobilités (IDFM)","stop_id":"IDFM:415369","data_import_id":495663,"resource_title":"Horaires au format GTFS","stop_name":"Madame de Maintenon","location_type":0},"geometry":{"type":"Point","coordinates":[2.06389464105589,48.80041928103928]}},{"type":"Feature","properties":{"dataset_id":668,"resource_id":80921,"dataset_title":"Réseaux urbains et interurbains d'Île-de-France Mobilités (IDFM)","stop_id":"IDFM:415363","data_import_id":495663,"resource_title":"Horaires au format GTFS","stop_name":"Henri Barbusse","location_type":0},"geometry":{"type":"Point","coordinates":[2.064591462942219,48.79528471260424]}},{"type":"Feature","properties":{"dataset_id":668,"resource_id":80921,"dataset_title":"Réseaux urbains et interurbains d'Île-de-France Mobilités (IDFM)","stop_id":"IDFM:415365","data_import_id":495663,"resource_title":"Horaires au format GTFS","stop_name":"Saint-Cyr","location_type":0},"geometry":{"type":"Point","coordinates":[2.075508330204193,48.800419731665166]}},{"type":"Feature","properties":{"dataset_id":668,"resource_id":80921,"dataset_title":"Réseaux urbains et interurbains d'Île-de-France Mobilités (IDFM)","stop_id":"IDFM:415362","data_import_id":495663,"resource_title":"Horaires au format GTFS","stop_name":"Henri Barbusse","location_type":0},"geometry":{"type":"Point","coordinates":[2.0646294483449017,48.79512738423955]}},{"type":"Feature","properties":{"dataset_id":668,"resource_id":80921,"dataset_title":"Réseaux urbains et interurbains d'Île-de-France Mobilités (IDFM)","stop_id":"IDFM:415378","data_import_id":495663,"resource_title":"Horaires au format GTFS","stop_name":"Gabriel Péri","location_type":0},"geometry":{"type":"Point","coordinates":[2.062695424098003,48.80123735750267]}},{"type":"Feature","properties":{"dataset_id":668,"resource_id":80921,"dataset_title":"Réseaux urbains et interurbains d'Île-de-France Mobilités (IDFM)","stop_id":"IDFM:415379","data_import_id":495663,"resource_title":"Horaires au format GTFS","stop_name":"Victor Hugo","location_type":0},"geometry":{"type":"Point","coordinates":[2.0620430528179936,48.799658238497116]}},{"type":"Feature","properties":{"dataset_id":668,"resource_id":80921,"dataset_title":"Réseaux urbains et interurbains d'Île-de-France Mobilités (IDFM)","stop_id":"IDFM:415373","data_import_id":495663,"resource_title":"Horaires au format GTFS","stop_name":"Eglise","location_type":0},"geometry":{"type":"Point","coordinates":[2.06471829992503,48.79928345359069]}},{"type":"Feature","properties":{"dataset_id":668,"resource_id":80921,"dataset_title":"Réseaux urbains et interurbains d'Île-de-France Mobilités (IDFM)","stop_id":"IDFM:12349","data_import_id":495663,"resource_title":"Horaires au format GTFS","stop_name":"République Gare Saint-Cyr","location_type":0},"geometry":{"type":"Point","coordinates":[2.070472084327202,48.79958017987412]}},{"type":"Feature","properties":{"dataset_id":668,"resource_id":80921,"dataset_title":"Réseaux urbains et interurbains d'Île-de-France Mobilités (IDFM)","stop_id":"IDFM:monomodalStopPlace:44619","data_import_id":495663,"resource_title":"Horaires au format GTFS","stop_name":"République - La Poste / Ecole Militaire","location_type":0},"geometry":{"type":"Point","coordinates":[2.069527664491933,48.7994783912967]}},{"type":"Feature","properties":{"dataset_id":668,"resource_id":80921,"dataset_title":"Réseaux urbains et interurbains d'Île-de-France Mobilités (IDFM)","stop_id":"IDFM:63963","data_import_id":495663,"resource_title":"Horaires au format GTFS","stop_name":"Le Clos Saint-Cyr","location_type":1},"geometry":{"type":"Point","coordinates":[2.0713404608314305,48.8047181598934]}},{"type":"Feature","properties":{"dataset_id":668,"resource_id":80921,"dataset_title":"Réseaux urbains et interurbains d'Île-de-France Mobilités (IDFM)","stop_id":"IDFM:63973","data_import_id":495663,"resource_title":"Horaires au format GTFS","stop_name":"Lycée Mansart","location_type":1},"geometry":{"type":"Point","coordinates":[2.064074334808759,48.805201144002744]}},{"type":"Feature","properties":{"dataset_id":668,"resource_id":80921,"dataset_title":"Réseaux urbains et interurbains d'Île-de-France Mobilités (IDFM)","stop_id":"IDFM:415335","data_import_id":495663,"resource_title":"Horaires au format GTFS","stop_name":"Jean-Baptiste Lully","location_type":1},"geometry":{"type":"Point","coordinates":[2.0675327611741516,48.805970197614855]}},{"type":"Feature","properties":{"dataset_id":668,"resource_id":80921,"dataset_title":"Réseaux urbains et interurbains d'Île-de-France Mobilités (IDFM)","stop_id":"IDFM:63856","data_import_id":495663,"resource_title":"Horaires au format GTFS","stop_name":"Parc Maurice Leluc / Henri Barbusse","location_type":1},"geometry":{"type":"Point","coordinates":[2.0642864598609534,48.79489534378928]}},{"type":"Feature","properties":{"dataset_id":668,"resource_id":80921,"dataset_title":"Réseaux urbains et interurbains d'Île-de-France Mobilités (IDFM)","stop_id":"IDFM:73733","data_import_id":495663,"resource_title":"Horaires au format GTFS","stop_name":"Mairie - Hôtel de ville","location_type":1},"geometry":{"type":"Point","coordinates":[2.066386539085282,48.80002053788608]}},{"type":"Feature","properties":{"dataset_id":668,"resource_id":80921,"dataset_title":"Réseaux urbains et interurbains d'Île-de-France Mobilités (IDFM)","stop_id":"IDFM:73732","data_import_id":495663,"resource_title":"Horaires au format GTFS","stop_name":"Paul Vaillant Couturier","location_type":1},"geometry":{"type":"Point","coordinates":[2.0729297916710543,48.797269745828494]}},{"type":"Feature","properties":{"dataset_id":668,"resource_id":80921,"dataset_title":"Réseaux urbains et interurbains d'Île-de-France Mobilités (IDFM)","stop_id":"IDFM:73731","data_import_id":495663,"resource_title":"Horaires au format GTFS","stop_name":"Saint-Cyr","location_type":1},"geometry":{"type":"Point","coordinates":[2.0733459489377735,48.799517049755266]}},{"type":"Feature","properties":{"dataset_id":668,"resource_id":80921,"dataset_title":"Réseaux urbains et interurbains d'Île-de-France Mobilités (IDFM)","stop_id":"IDFM:490704","data_import_id":495663,"resource_title":"Horaires au format GTFS","stop_name":"République - La Poste / Ecole Militaire","location_type":1},"geometry":{"type":"Point","coordinates":[2.069527664491933,48.7994783912967]}},{"type":"Feature","properties":{"dataset_id":668,"resource_id":80921,"dataset_title":"Réseaux urbains et interurbains d'Île-de-France Mobilités (IDFM)","stop_id":"IDFM:490703","data_import_id":495663,"resource_title":"Horaires au format GTFS","stop_name":"Madame de Maintenon","location_type":1},"geometry":{"type":"Point","coordinates":[2.06389464105589,48.80041928103928]}},{"type":"Feature","properties":{"dataset_id":240,"resource_id":67595,"dataset_title":"SNCF Transilien","stop_id":"IDFM:monomodalStopPlace:44619","data_import_id":495624,"resource_title":"https://eu.ftp.opendatasoft.com/sncf/gtfs/transilien-gtfs.zip","stop_name":"République - La Poste / Ecole Militaire","location_type":0},"geometry":{"type":"Point","coordinates":[2.069527664491933,48.7994783912967]}},{"type":"Feature","properties":{"dataset_id":668,"resource_id":80921,"dataset_title":"Réseaux urbains et interurbains d'Île-de-France Mobilités (IDFM)","stop_id":"IDFM:415406","data_import_id":495663,"resource_title":"Horaires au format GTFS","stop_name":"Docteur Vaillant","location_type":0},"geometry":{"type":"Point","coordinates":[2.072494430655801,48.80299572584079]}},{"type":"Feature","properties":{"dataset_id":668,"resource_id":80921,"dataset_title":"Réseaux urbains et interurbains d'Île-de-France Mobilités (IDFM)","stop_id":"IDFM:415403","data_import_id":495663,"resource_title":"Horaires au format GTFS","stop_name":"Le Clos Saint-Cyr","location_type":0},"geometry":{"type":"Point","coordinates":[2.0714564230074166,48.804705569373006]}},{"type":"Feature","properties":{"dataset_id":668,"resource_id":80921,"dataset_title":"Réseaux urbains et interurbains d'Île-de-France Mobilités (IDFM)","stop_id":"IDFM:415402","data_import_id":495663,"resource_title":"Horaires au format GTFS","stop_name":"Le Clos Saint-Cyr","location_type":0},"geometry":{"type":"Point","coordinates":[2.0712244985994612,48.804730750301154]}},{"type":"Feature","properties":{"dataset_id":668,"resource_id":80921,"dataset_title":"Réseaux urbains et interurbains d'Île-de-France Mobilités (IDFM)","stop_id":"IDFM:415400","data_import_id":495663,"resource_title":"Horaires au format GTFS","stop_name":"Lycée Mansart","location_type":0},"geometry":{"type":"Point","coordinates":[2.0636876948053633,48.8051216649461]}},{"type":"Feature","properties":{"dataset_id":668,"resource_id":80921,"dataset_title":"Réseaux urbains et interurbains d'Île-de-France Mobilités (IDFM)","stop_id":"IDFM:5959","data_import_id":495663,"resource_title":"Horaires au format GTFS","stop_name":"Lycée Mansart","location_type":0},"geometry":{"type":"Point","coordinates":[2.0646919384838744,48.80530941194958]}},{"type":"Feature","properties":{"dataset_id":668,"resource_id":80921,"dataset_title":"Réseaux urbains et interurbains d'Île-de-France Mobilités (IDFM)","stop_id":"IDFM:5852","data_import_id":495663,"resource_title":"Horaires au format GTFS","stop_name":"Division Leclerc","location_type":0},"geometry":{"type":"Point","coordinates":[2.0730201444444725,48.800229568899645]}},{"type":"Feature","properties":{"dataset_id":668,"resource_id":80921,"dataset_title":"Réseaux urbains et interurbains d'Île-de-France Mobilités (IDFM)","stop_id":"IDFM:482581","data_import_id":495663,"resource_title":"Horaires au format GTFS","stop_name":"Emile Zola","location_type":0},"geometry":{"type":"Point","coordinates":[2.063335062982356,48.79822028768211]}},{"type":"Feature","properties":{"dataset_id":668,"resource_id":80921,"dataset_title":"Réseaux urbains et interurbains d'Île-de-France Mobilités (IDFM)","stop_id":"IDFM:420488","data_import_id":495663,"resource_title":"Horaires au format GTFS","stop_name":"République","location_type":0},"geometry":{"type":"Point","coordinates":[2.0713394785837287,48.80056729947079]}},{"type":"Feature","properties":{"dataset_id":668,"resource_id":80921,"dataset_title":"Réseaux urbains et interurbains d'Île-de-France Mobilités (IDFM)","stop_id":"IDFM:420489","data_import_id":495663,"resource_title":"Horaires au format GTFS","stop_name":"République","location_type":0},"geometry":{"type":"Point","coordinates":[2.0711122168509473,48.80033168219337]}},{"type":"Feature","properties":{"dataset_id":668,"resource_id":80921,"dataset_title":"Réseaux urbains et interurbains d'Île-de-France Mobilités (IDFM)","stop_id":"IDFM:462056","data_import_id":495663,"resource_title":"Horaires au format GTFS","stop_name":"Mairie - Hôtel de ville","location_type":0},"geometry":{"type":"Point","coordinates":[2.0662558461004106,48.80009596752782]}},{"type":"Feature","properties":{"dataset_id":668,"resource_id":80921,"dataset_title":"Réseaux urbains et interurbains d'Île-de-France Mobilités (IDFM)","stop_id":"IDFM:462061","data_import_id":495663,"resource_title":"Horaires au format GTFS","stop_name":"Gare de Saint-Cyr-l'École","location_type":0},"geometry":{"type":"Point","coordinates":[2.0711789986875906,48.79887512647661]}},{"type":"Feature","properties":{"dataset_id":668,"resource_id":80921,"dataset_title":"Réseaux urbains et interurbains d'Île-de-France Mobilités (IDFM)","stop_id":"IDFM:425945","data_import_id":495663,"resource_title":"Horaires au format GTFS","stop_name":"Eglise / Emile Zola","location_type":1},"geometry":{"type":"Point","coordinates":[2.0640275619139006,48.79870241103563]}},{"type":"Feature","properties":{"dataset_id":668,"resource_id":80921,"dataset_title":"Réseaux urbains et interurbains d'Île-de-France Mobilités (IDFM)","stop_id":"IDFM:483718","data_import_id":495663,"resource_title":"Horaires au format GTFS","stop_name":"Quartier Gally","location_type":1},"geometry":{"type":"Point","coordinates":[2.0796965937579297,48.801099640777664]}},{"type":"Feature","properties":{"dataset_id":668,"resource_id":80921,"dataset_title":"Réseaux urbains et interurbains d'Île-de-France Mobilités (IDFM)","stop_id":"IDFM:73861","data_import_id":495663,"resource_title":"Horaires au format GTFS","stop_name":"Division Leclerc","location_type":1},"geometry":{"type":"Point","coordinates":[2.0731537994763674,48.8003700167433]}},{"type":"Feature","properties":{"dataset_id":240,"resource_id":67595,"dataset_title":"SNCF Transilien","stop_id":"IDFM:20628","data_import_id":495624,"resource_title":"https://eu.ftp.opendatasoft.com/sncf/gtfs/transilien-gtfs.zip","stop_name":"République - La Poste","location_type":0},"geometry":{"type":"Point","coordinates":[2.067875421584617,48.7986065618531]}},{"type":"Feature","properties":{"dataset_id":240,"resource_id":67595,"dataset_title":"SNCF Transilien","stop_id":"IDFM:12349","data_import_id":495624,"resource_title":"https://eu.ftp.opendatasoft.com/sncf/gtfs/transilien-gtfs.zip","stop_name":"République Gare Saint-Cyr","location_type":0},"geometry":{"type":"Point","coordinates":[2.070472084327202,48.79958017987412]}},{"type":"Feature","properties":{"dataset_id":240,"resource_id":67595,"dataset_title":"SNCF Transilien","stop_id":"IDFM:StopPlaceEntrance:50170737","data_import_id":495624,"resource_title":"https://eu.ftp.opendatasoft.com/sncf/gtfs/transilien-gtfs.zip","stop_name":"pl. Pierre Sémard","location_type":2},"geometry":{"type":"Point","coordinates":[2.0729750936134512,48.79893404230639]}},{"type":"Feature","properties":{"dataset_id":240,"resource_id":67595,"dataset_title":"SNCF Transilien","stop_id":"IDFM:StopPlaceEntrance:50170738","data_import_id":495624,"resource_title":"https://eu.ftp.opendatasoft.com/sncf/gtfs/transilien-gtfs.zip","stop_name":"pl. Pierre Sémard","location_type":2},"geometry":{"type":"Point","coordinates":[2.0733142965033116,48.798999632781666]}},{"type":"Feature","properties":{"dataset_id":668,"resource_id":80921,"dataset_title":"Réseaux urbains et interurbains d'Île-de-France Mobilités (IDFM)","stop_id":"IDFM:479377","data_import_id":495663,"resource_title":"Horaires au format GTFS","stop_name":"Colonel Arnaud Beltrame","location_type":0},"geometry":{"type":"Point","coordinates":[2.072580062263553,48.806603082559704]}},{"type":"Feature","properties":{"dataset_id":668,"resource_id":80921,"dataset_title":"Réseaux urbains et interurbains d'Île-de-France Mobilités (IDFM)","stop_id":"IDFM:482580","data_import_id":495663,"resource_title":"Horaires au format GTFS","stop_name":"Emile Zola","location_type":0},"geometry":{"type":"Point","coordinates":[2.0646572634334786,48.79813170502086]}},{"type":"Feature","properties":{"dataset_id":668,"resource_id":80921,"dataset_title":"Réseaux urbains et interurbains d'Île-de-France Mobilités (IDFM)","stop_id":"IDFM:483716","data_import_id":495663,"resource_title":"Horaires au format GTFS","stop_name":"Quartier Gally","location_type":0},"geometry":{"type":"Point","coordinates":[2.0801122791269093,48.80107585787957]}},{"type":"Feature","properties":{"dataset_id":668,"resource_id":80921,"dataset_title":"Réseaux urbains et interurbains d'Île-de-France Mobilités (IDFM)","stop_id":"IDFM:472229","data_import_id":495663,"resource_title":"Horaires au format GTFS","stop_name":"Division Leclerc","location_type":0},"geometry":{"type":"Point","coordinates":[2.0732874552279843,48.80051046442011]}},{"type":"Feature","properties":{"dataset_id":668,"resource_id":80921,"dataset_title":"Réseaux urbains et interurbains d'Île-de-France Mobilités (IDFM)","stop_id":"IDFM:480936","data_import_id":495663,"resource_title":"Horaires au format GTFS","stop_name":"Les Portes de Saint-Cyr","location_type":0},"geometry":{"type":"Point","coordinates":[2.0771416765531865,48.80660240900839]}},{"type":"Feature","properties":{"dataset_id":668,"resource_id":80921,"dataset_title":"Réseaux urbains et interurbains d'Île-de-France Mobilités (IDFM)","stop_id":"IDFM:20582","data_import_id":495663,"resource_title":"Horaires au format GTFS","stop_name":"Ecole Bizet","location_type":0},"geometry":{"type":"Point","coordinates":[2.071426399879269,48.79415503481429]}},{"type":"Feature","properties":{"dataset_id":668,"resource_id":80921,"dataset_title":"Réseaux urbains et interurbains d'Île-de-France Mobilités (IDFM)","stop_id":"IDFM:420478","data_import_id":495663,"resource_title":"Horaires au format GTFS","stop_name":"Gare de Saint-Cyr-l'École","location_type":0},"geometry":{"type":"Point","coordinates":[2.072933455915043,48.79897869080426]}},{"type":"Feature","properties":{"dataset_id":668,"resource_id":80921,"dataset_title":"Réseaux urbains et interurbains d'Île-de-France Mobilités (IDFM)","stop_id":"IDFM:412297","data_import_id":495663,"resource_title":"Horaires au format GTFS","stop_name":"Aérodrome / Les Portes de Saint-Cyr","location_type":0},"geometry":{"type":"Point","coordinates":[2.0742227378317035,48.805347628727716]}},{"type":"Feature","properties":{"dataset_id":668,"resource_id":80921,"dataset_title":"Réseaux urbains et interurbains d'Île-de-France Mobilités (IDFM)","stop_id":"IDFM:471036","data_import_id":495663,"resource_title":"Horaires au format GTFS","stop_name":"Saint-Cyr","location_type":0},"geometry":{"type":"Point","coordinates":[2.073755337690405,48.79869724562592]}},{"type":"Feature","properties":{"dataset_id":668,"resource_id":80921,"dataset_title":"Réseaux urbains et interurbains d'Île-de-France Mobilités (IDFM)","stop_id":"IDFM:472908","data_import_id":495663,"resource_title":"Horaires au format GTFS","stop_name":"Saint-Cyr","location_type":0},"geometry":{"type":"Point","coordinates":[2.07372922995978,48.798634083249894]}},{"type":"Feature","properties":{"dataset_id":668,"resource_id":80921,"dataset_title":"Réseaux urbains et interurbains d'Île-de-France Mobilités (IDFM)","stop_id":"IDFM:480952","data_import_id":495663,"resource_title":"Horaires au format GTFS","stop_name":"Les Portes de Saint-Cyr","location_type":1},"geometry":{"type":"Point","coordinates":[2.0749408270199257,48.80593331617051]}},{"type":"Feature","properties":{"dataset_id":668,"resource_id":80921,"dataset_title":"Réseaux urbains et interurbains d'Île-de-France Mobilités (IDFM)","stop_id":"IDFM:73932","data_import_id":495663,"resource_title":"Horaires au format GTFS","stop_name":"Ecole Bizet","location_type":1},"geometry":{"type":"Point","coordinates":[2.0713979760788646,48.79422227144265]}},{"type":"Feature","properties":{"dataset_id":668,"resource_id":80921,"dataset_title":"Réseaux urbains et interurbains d'Île-de-France Mobilités (IDFM)","stop_id":"IDFM:73935","data_import_id":495663,"resource_title":"Horaires au format GTFS","stop_name":"Parc de l'Abbaye / Gabriel Péri","location_type":1},"geometry":{"type":"Point","coordinates":[2.0621261970583595,48.80184900088178]}},{"type":"Feature","properties":{"dataset_id":668,"resource_id":80921,"dataset_title":"Réseaux urbains et interurbains d'Île-de-France Mobilités (IDFM)","stop_id":"IDFM:73933","data_import_id":495663,"resource_title":"Horaires au format GTFS","stop_name":"Rue du Plateau","location_type":1},"geometry":{"type":"Point","coordinates":[2.068237732731806,48.79471035114536]}},{"type":"Feature","properties":{"dataset_id":668,"resource_id":80921,"dataset_title":"Réseaux urbains et interurbains d'Île-de-France Mobilités (IDFM)","stop_id":"IDFM:63937","data_import_id":495663,"resource_title":"Horaires au format GTFS","stop_name":"Docteur Vaillant","location_type":1},"geometry":{"type":"Point","coordinates":[2.0723656583240855,48.80296324664209]}},{"type":"Feature","properties":{"dataset_id":668,"resource_id":80921,"dataset_title":"Réseaux urbains et interurbains d'Île-de-France Mobilités (IDFM)","stop_id":"IDFM:StopPlaceEntrance:50170737","data_import_id":495663,"resource_title":"Horaires au format GTFS","stop_name":"pl. Pierre Sémard","location_type":2},"geometry":{"type":"Point","coordinates":[2.0729750936134512,48.79893404230639]}},{"type":"Feature","properties":{"dataset_id":668,"resource_id":80921,"dataset_title":"Réseaux urbains et interurbains d'Île-de-France Mobilités (IDFM)","stop_id":"IDFM:StopPlaceEntrance:50170738","data_import_id":495663,"resource_title":"Horaires au format GTFS","stop_name":"pl. Pierre Sémard","location_type":2},"geometry":{"type":"Point","coordinates":[2.0733142965033116,48.798999632781666]}}]}